[
  {
    "id": "R01",
    "name": "Al Badar Pakwan & Biryani center",
    "location": "30.1866373, 67.0058023",
    "address": "Jan Mohammad Rd, Modern Colony, Quetta, Balochistan",
    "image_id": "101",
    "reviews": 0
  },
  {
    "id": "R02",
    "name": "Zam Zam hotel",
    "location": "30.1893055, 67.0030053999999",
    "address": "محمد علی جناح روڈ، Quetta, Balochistan",
    "image_ref": "Aap_uEBG0waAbP7G-wJjTzC5yacIBHFxATzHbj_zEMlgC4I3QZRAW1kXKT2hRbGu8O5JUWMpUH1g3onuSF318ri3t539m1qF-nlY_bTB3cGAbZO585jtJo2QtxLAn81j9upjGiT_ytSTPenCIPd-t1NXkixDm7TtesiBNI0e6fOs6ZyIVTRC",
    "reviews": 0
  },
  {
    "id": "R03",
    "name": "Jaan Broast",
    "location": "30.189074873057788, 67.01544978607902",
    "address": "Prince Rd, Quetta, Balochistan, Pakistan",
    "image_id": "105",
    "reviews": 4.2
  },
  {
    "id": "R04",
    "name": "The Crown Crust",
    "location": "30.1871158999999, 67.0013824999999",
    "address": "Quetta, Balochistan",
    "image_id": "102",
    "reviews": 0
  },
  {
    "id": "R05",
    "name": "Master's Baryani and Take Away",
    "location": "30.1895849247626, 67.01301434037049",
    "address": "Shawak Shah Road, Quetta, Balochistan 87300, Pakistan",
    "image_id": "106",
    "reviews": 4
  },
  {
    "id": "R06",
    "name": "Al-Subhan Hotel & Restaurant السبحان ہوٹل اینڈ ریسٹورنٹ",
    "location": "30.1898716999999, 67.0055079",
    "address": "Jinnah Rd, Imdad Chowk, Baldia Town, Quetta, Balochistan",
    "reviews": 0
  },
  {
    "id": "R07",
    "name": "Usmania Restaurant",
    "location": "30.204526566129484, 67.00624918076144",
    "address": "Old Pishin Stop، Khojak Rd, near Law College، Model Town, Quetta, Balochistan 87300, Pakistan",
    "image_id": "107",
    "reviews": 4.1
  },
  {
    "id": "R08",
    "name": "New Prince Burger",
    "location": "30.1896662, 67.0046467",
    "address": "Mango villa, Stewart Rd, Quetta, Balochistan",
    "reviews": 0
  },
  {
    "id": "R09",
    "name": "Usmania Tandoori Restaurant Near Regal Chowk, Quetta",
    "location": "30.20222702471948, 67.01380228110864",
    "address": "Circular Road near Regal chowk Quetta، Pakistan",
    "image_id": "108",
    "reviews": 4
  },
  {
    "id": "R10",
    "name": "New Quetta Restaurant نیو کوئیٹہ ریسٹورنٹ",
    "location": "30.1898287, 67.0052089",
    "address": "Jinnah Rd, Khaliqabad, Baldia Town, Quetta, Balochistan",
    "reviews": 0
  },
  {
    "id": "R11",
    "name": "Saigon Cafe & Restaurant",
    "location": "30.20719382169414, 67.00177295610455",
    "address": "Sheikh Umer Rd, Shehbaz Town Shahbaz Town, Quetta, Balochistan, Pakistan",
    "image_id": "109",
    "reviews": 4.2
  },
  {
    "id": "R12",
    "name": "Allah Wala Hotel & Restaurant",
    "location": "30.1896502, 67.004503",
    "address": "Jinnah Rd Khaliqabad, Baldia Town, Quetta, 87300",
    "reviews": 0
  },
  {
    "id": "R13",
    "name": "Mehfil Restaurant",
    "location": "30.252126630374907, 66.97411171192658",
    "address": "Airport Rd, Chiltan Housing Society Quetta, Balochistan 87300, Pakistan",
    "image_id": 110,
    "reviews": 4
  },
  {
    "id": "R14",
    "name": "New Karachi Hotel",
    "location": "30.1832469, 67.0007258",
    "address": "52M2+77X, Quetta, Balochistan",
    "reviews": 0
  },
  {
    "id": "R15",
    "name": "Khan Food Point",
    "location": "30.1904917, 67.0067114999999",
    "address": "M.A Jinnah Road, Quetta, Balochistan",
    "reviews": 0
  },
  {
    "id": "R16",
    "name": "Kasi Hotel & Restaurant",
    "location": "30.1812284, 66.9991119",
    "address": "Zarghun Road, Quetta, Balochistan 87300",
    "reviews": 0
  },
  {
    "id": "R17",
    "name": "Fresh Fish And Haleem Point.",
    "location": "30.1863147, 66.9958983",
    "address": "5XPW+G9C, ریلوے ہاؤسنگ سوسائٹی Railway Housing Society, Quetta, Balochistan",
    "reviews": 0
  },
  {
    "id": "R18",
    "name": "Lehri Sajji & Restaurant",
    "location": "30.1912997, 66.9989322",
    "address": "Joint Rd, Railway Colony Quetta, Balochistan",
    "image_id": "103",
    "reviews": 4.1
  },
  {
    "id": "R19",
    "name": "Shahi cafe and restaurant",
    "location": "30.1914608, 67.0161932",
    "address": "Archer Rd, Quetta, Balochistan",
    "reviews": 0
  },
  {
    "id": "R20",
    "name": "Zarghoon Hotel زرغون ہوٹل کوٸٹہ",
    "location": "30.1801123, 66.9988798999999",
    "address": "near Bank Al-Falah, Double Rd, Quetta, Balochistan",
    "image_ref": "Aap_uEAN4ZExQfH9SSz5ocIRKTorKv5zwrX2shTAxwR665T_loU_Q7rwu0wCyeGWw0tV-l-9iwoC5VsvZ0YOL-dTZuq8oN4bTgQqiT8UJVxi9UUulFUrxVDTINba8CkWmQIC_q1b-M50zFPnVMMnn08w5m4LrympgbJOtKWr39zbNhgaB4qj",
    "reviews": 0
  },
  {
    "id": "R21",
    "name": "King Broast",
    "location": "30.1806792, 66.9949213",
    "address": "Karachi Coach Terminal, Sariab Road, Ahmedzai Colony Ahmed Zai Colony, Quetta, Balochistan",
    "image_id": "104",
    "reviews": 4.8
  },
  {
    "id": "R22",
    "name": "Lovely Bukhari restaurant",
    "location": "30.1916265, 67.0086153",
    "address": "Prince Rd, Quetta, Balochistan",
    "reviews": 0
  },
  {
    "id": "R23",
    "name": "Al fajar restaurat",
    "location": "30.253437199300812, 66.97207969637131",
    "address": "7X3C+7RW, Chiltan Housing Society Chiltan Housing Scheme, Quetta, Balochistan, Pakistan",
    "image_id": "111",
    "reviews": 4
  },
  {
    "id": "R24",
    "name": "Italian Pizza",
    "location": "30.2458837944084, 66.98352736425801",
    "address": "Airport Rd, Quetta, Balochistan, Pakistan",
    "image_id": "112",
    "reviews": 3.9
  },
  {
    "id": "R25",
    "name": "Qartaba Hotel",
    "location": "30.245644052892576, 66.98316614001291",
    "address": "6XWM+57R, Killi Gul Muhammed Quetta, Balochistan, Pakistan",
    "image_id": "113",
    "reviews": 4
  },
  {
    "id": "R26",
    "name": "A One Food Point",
    "location": "30.191955644163034, 67.01638335795428",
    "address": "Meer Khalil-ur-Rehman road, Quetta, Quetta District, Balochistan, Pakistan",
    "image_id": "114",
    "reviews": 4.1
  },
  {
    "id": "R27",
    "name": "Hot N Chilli",
    "location": "30.193379325966152, 67.01482261875917",
    "address": "Hari Krishna Road، Liakat Bazar Quetta, Balochistan, Pakistan",
    "image_id": "115",
    "reviews": 3.8
  },
  {
    "id": "R28",
    "name": "King Kong Pizza",
    "location": "30.21110502922782, 67.0000754254186",
    "address": "Shop, No.2, 18-C Samungli Rd, Shahbaz Town, Quetta, Balochistan 87300, Pakistan",
    "image_id": "116",
    "reviews": 4.2
  }
]